$GNGGA,082146.00,3640.4090736,N,11711.1115969,E,1,28,1.0,120.608,M,-2.200,M,0.0,0000*45
$GNGGA,082147.00,3640.4082760,N,11711.1116664,E,1,29,1.0,120.896,M,-2.200,M,0.0,0000*4D
$GNGGA,082148.00,3640.4081455,N,11711.1117535,E,1,29,1.0,121.437,M,-2.200,M,0.0,0000*44
$GNGGA,082149.00,3640.4093855,N,11711.1119404,E,1,31,1.0,120.948,M,-2.200,M,0.0,0000*4A
$GNGGA,082150.00,3640.4104334,N,11711.1121011,E,1,31,1.0,120.064,M,-2.200,M,0.0,0000*4D
$GNGGA,082151.00,3640.4112890,N,11711.1121764,E,1,31,1.0,119.565,M,-2.200,M,0.0,0000*45
$GNGGA,082152.00,3640.4118960,N,11711.1122101,E,1,31,1.0,118.882,M,-2.200,M,0.0,0000*41
$GNGGA,082153.00,3640.4123541,N,11711.1122330,E,1,31,1.0,118.198,M,-2.200,M,0.0,0000*45
$GNGGA,082154.00,3640.4128667,N,11711.1122750,E,1,30,1.0,117.616,M,-2.200,M,0.0,0000*43
$GNGGA,082155.00,3640.4131917,N,11711.1123350,E,1,31,1.0,117.027,M,-2.200,M,0.0,0000*42
$GNGGA,082156.00,3640.4135289,N,11711.1123499,E,1,30,1.0,116.754,M,-2.200,M,0.0,0000*48
$GNGGA,082157.00,3640.4138373,N,11711.1123425,E,1,29,1.0,116.473,M,-2.200,M,0.0,0000*49
$GNGGA,082158.00,3640.4140117,N,11711.1123708,E,1,29,1.0,116.297,M,-2.200,M,0.0,0000*49
$GNGGA,082159.00,3640.4141958,N,11711.1123971,E,1,29,1.0,115.925,M,-2.200,M,0.0,0000*4B
$GNGGA,082200.00,3640.4143820,N,11711.1124334,E,1,29,1.0,115.496,M,-2.200,M,0.0,0000*41
$GNGGA,082201.00,3640.4145761,N,11711.1124340,E,1,29,1.0,115.128,M,-2.200,M,0.0,0000*4F
$GNGGA,082202.00,3640.4147050,N,11711.1124410,E,1,29,1.0,114.808,M,-2.200,M,0.0,0000*43
$GNGGA,082203.00,3640.4147271,N,11711.1124266,E,1,29,1.0,114.810,M,-2.200,M,0.0,0000*4D
$GNGGA,082204.00,3640.4146984,N,11711.1124187,E,1,30,1.0,114.867,M,-2.200,M,0.0,0000*4E
$GNGGA,082205.00,3640.4146572,N,11711.1124158,E,1,30,1.0,114.980,M,-2.200,M,0.0,0000*40
$GNGGA,082206.00,3640.4146954,N,11711.1124171,E,1,30,1.0,114.888,M,-2.200,M,0.0,0000*49
$GNGGA,082207.00,3640.4146785,N,11711.1124122,E,1,30,1.0,114.932,M,-2.200,M,0.0,0000*4C
$GNGGA,082208.00,3640.4146854,N,11711.1124092,E,1,30,1.0,114.921,M,-2.200,M,0.0,0000*48
$GNGGA,082209.00,3640.4146820,N,11711.1124068,E,1,30,1.0,114.923,M,-2.200,M,0.0,0000*4D
$GNGGA,082210.00,3640.4146825,N,11711.1124030,E,1,30,1.0,114.922,M,-2.200,M,0.0,0000*4C
$GNGGA,082211.00,3640.4146801,N,11711.1123968,E,1,30,1.0,114.923,M,-2.200,M,0.0,0000*49
$GNGGA,082212.00,3640.4146778,N,11711.1123968,E,1,31,1.0,114.920,M,-2.200,M,0.0,0000*49
$GNGGA,082213.00,3640.4146785,N,11711.1123931,E,1,31,1.0,114.917,M,-2.200,M,0.0,0000*42
$GNGGA,082214.00,3640.4146737,N,11711.1123885,E,1,30,1.0,114.922,M,-2.200,M,0.0,0000*45
$GNGGA,082215.00,3640.4146750,N,11711.1123842,E,1,30,1.0,114.919,M,-2.200,M,0.0,0000*46
$GNGGA,082216.00,3640.4146761,N,11711.1123781,E,1,31,1.0,114.916,M,-2.200,M,0.0,0000*49
$GNGGA,082217.00,3640.4146712,N,11711.1123707,E,1,31,1.0,114.918,M,-2.200,M,0.0,0000*4C
$GNGGA,082218.00,3640.4146690,N,11711.1123646,E,1,31,1.0,114.918,M,-2.200,M,0.0,0000*4C
$GNGGA,082219.00,3640.4146672,N,11711.1123604,E,1,31,1.0,114.915,M,-2.200,M,0.0,0000*4A
$GNGGA,082220.00,3640.4146642,N,11711.1123531,E,1,31,1.0,114.920,M,-2.200,M,0.0,0000*40
$GNGGA,082221.00,3640.4146621,N,11711.1123490,E,1,31,1.0,114.914,M,-2.200,M,0.0,0000*49
$GNGGA,082222.00,3640.4146572,N,11711.1123416,E,1,29,1.0,114.917,M,-2.200,M,0.0,0000*4B
$GNGGA,082223.00,3640.4146517,N,11711.1123353,E,1,29,1.0,114.929,M,-2.200,M,0.0,0000*42
$GNGGA,082224.00,3640.4146451,N,11711.1123335,E,1,30,1.0,114.929,M,-2.200,M,0.0,0000*4E
$GNGGA,082225.00,3640.4146414,N,11711.1123236,E,1,29,1.0,114.934,M,-2.200,M,0.0,0000*48
$GNGGA,082226.00,3640.4146396,N,11711.1123146,E,1,29,1.0,114.938,M,-2.200,M,0.0,0000*4E
$GNGGA,082227.00,3640.4146370,N,11711.1123099,E,1,30,1.0,114.934,M,-2.200,M,0.0,0000*40
$GNGGA,082228.00,3640.4146364,N,11711.1123033,E,1,30,1.0,114.935,M,-2.200,M,0.0,0000*4B
$GNGGA,082229.00,3640.4146327,N,11711.1122986,E,1,30,1.0,114.934,M,-2.200,M,0.0,0000*4A
$GNGGA,082230.00,3640.4146297,N,11711.1122932,E,1,29,1.0,114.941,M,-2.200,M,0.0,0000*4D
$GNGGA,082231.00,3640.4146310,N,11711.1122867,E,1,31,1.0,114.938,M,-2.200,M,0.0,0000*44
$GNGGA,082232.00,3640.4146270,N,11711.1122792,E,1,29,1.0,114.940,M,-2.200,M,0.0,0000*43
$GNGGA,082233.00,3640.4146323,N,11711.1122732,E,1,32,1.0,114.936,M,-2.200,M,0.0,0000*44
$GNGGA,082234.00,3640.4146296,N,11711.1122676,E,1,32,1.0,114.933,M,-2.200,M,0.0,0000*48
$GNGGA,082235.00,3640.4146331,N,11711.1122598,E,1,32,1.0,114.935,M,-2.200,M,0.0,0000*40
$GNGGA,082236.00,3640.4146348,N,11711.1122565,E,1,32,1.0,114.932,M,-2.200,M,0.0,0000*48
$GNGGA,082237.00,3640.4146411,N,11711.1122553,E,1,34,1.0,114.937,M,-2.200,M,0.0,0000*44
$GNGGA,082238.00,3640.4146413,N,11711.1122543,E,1,33,1.0,114.948,M,-2.200,M,0.0,0000*47
$GNGGA,082239.00,3640.4146448,N,11711.1122523,E,1,34,1.0,114.957,M,-2.200,M,0.0,0000*47
$GNGGA,082240.00,3640.4146561,N,11711.1122493,E,1,34,1.0,114.952,M,-2.200,M,0.0,0000*4C
$GNGGA,082241.00,3640.4146591,N,11711.1122470,E,1,33,1.0,114.965,M,-2.200,M,0.0,0000*4C
$GNGGA,082242.00,3640.4146619,N,11711.1122501,E,1,34,1.0,114.971,M,-2.200,M,0.0,0000*49
$GNGGA,082243.00,3640.4146688,N,11711.1122485,E,1,34,1.0,114.973,M,-2.200,M,0.0,0000*4F
$GNGGA,082244.00,3640.4146715,N,11711.1122454,E,1,35,1.0,114.987,M,-2.200,M,0.0,0000*4B
$GNGGA,082245.00,3640.4146739,N,11711.1122447,E,1,35,1.0,114.993,M,-2.200,M,0.0,0000*43
$GNGGA,082246.00,3640.4146830,N,11711.1122435,E,1,34,1.0,114.993,M,-2.200,M,0.0,0000*42
$GNGGA,082247.00,3640.4146863,N,11711.1122415,E,1,34,1.0,115.004,M,-2.200,M,0.0,0000*41
$GNGGA,082248.00,3640.4146912,N,11711.1122398,E,1,34,1.0,115.013,M,-2.200,M,0.0,0000*4D
$GNGGA,082249.00,3640.4146945,N,11711.1122358,E,1,35,1.0,115.019,M,-2.200,M,0.0,0000*49
$GNGGA,082250.00,3640.4146996,N,11711.1122358,E,1,34,1.0,115.026,M,-2.200,M,0.0,0000*42
$GNGGA,082251.00,3640.4147043,N,11711.1122350,E,1,35,1.0,115.035,M,-2.200,M,0.0,0000*48
$GNGGA,082252.00,3640.4147113,N,11711.1122319,E,1,34,1.0,115.038,M,-2.200,M,0.0,0000*4E
$GNGGA,082253.00,3640.4147162,N,11711.1122281,E,1,34,1.0,115.042,M,-2.200,M,0.0,0000*44
$GNGGA,082254.00,3640.4147206,N,11711.1122281,E,1,34,1.0,115.048,M,-2.200,M,0.0,0000*48
$GNGGA,082255.00,3640.4147280,N,11711.1122205,E,1,34,1.0,115.051,M,-2.200,M,0.0,0000*43
$GNGGA,082256.00,3640.4147358,N,11711.1122148,E,1,34,1.0,115.047,M,-2.200,M,0.0,0000*49
$GNGGA,082257.00,3640.4147377,N,11711.1122148,E,1,34,1.0,115.059,M,-2.200,M,0.0,0000*4A
$GNGGA,082258.00,3640.4147424,N,11711.1122121,E,1,34,1.0,115.062,M,-2.200,M,0.0,0000*43
$GNGGA,082259.00,3640.4147479,N,11711.1122082,E,1,34,1.0,115.070,M,-2.200,M,0.0,0000*41
$GNGGA,082300.00,3640.4147522,N,11711.1122032,E,1,34,1.0,115.076,M,-2.200,M,0.0,0000*4E
$GNGGA,082301.00,3640.4147527,N,11711.1122008,E,1,34,1.0,115.086,M,-2.200,M,0.0,0000*4C
$GNGGA,082302.00,3640.4147562,N,11711.1121968,E,1,35,1.0,115.088,M,-2.200,M,0.0,0000*4D
$GNGGA,082303.00,3640.4147607,N,11711.1121909,E,1,35,1.0,115.098,M,-2.200,M,0.0,0000*4A
$GNGGA,082304.00,3640.4147586,N,11711.1121858,E,1,36,1.0,115.125,M,-2.200,M,0.0,0000*46
$GNGGA,082305.00,3640.4147669,N,11711.1121825,E,1,35,1.0,115.115,M,-2.200,M,0.0,0000*4F
$GNGGA,082306.00,3640.4147718,N,11711.1121763,E,1,36,1.0,115.114,M,-2.200,M,0.0,0000*44
$GNGGA,082307.00,3640.4147750,N,11711.1121739,E,1,34,1.0,115.127,M,-2.200,M,0.0,0000*44
$GNGGA,082308.00,3640.4147786,N,11711.1121699,E,1,34,1.0,115.128,M,-2.200,M,0.0,0000*44
$GNGGA,082309.00,3640.4147810,N,11711.1121666,E,1,35,1.0,115.144,M,-2.200,M,0.0,0000*4E
$GNGGA,082310.00,3640.4147875,N,11711.1121627,E,1,35,1.0,115.149,M,-2.200,M,0.0,0000*4D
$GNGGA,082311.00,3640.4147887,N,11711.1121635,E,1,35,1.0,115.160,M,-2.200,M,0.0,0000*49
$GNGGA,082312.00,3640.4147958,N,11711.1121590,E,1,35,1.0,115.166,M,-2.200,M,0.0,0000*43
$GNGGA,082313.00,3640.4148039,N,11711.1121543,E,1,35,1.0,115.167,M,-2.200,M,0.0,0000*4C
$GNGGA,082314.00,3640.4148101,N,11711.1121518,E,1,35,1.0,115.179,M,-2.200,M,0.0,0000*40
$GNGGA,082315.00,3640.4148140,N,11711.1121471,E,1,35,1.0,115.182,M,-2.200,M,0.0,0000*4E
$GNGGA,082316.00,3640.4148209,N,11711.1121409,E,1,35,1.0,115.187,M,-2.200,M,0.0,0000*49
$GNGGA,082317.00,3640.4148260,N,11711.1121407,E,1,35,1.0,115.193,M,-2.200,M,0.0,0000*4C
$GNGGA,082318.00,3640.4148387,N,11711.1121355,E,1,35,1.0,115.194,M,-2.200,M,0.0,0000*4C
$GNGGA,082319.00,3640.4148432,N,11711.1121302,E,1,35,1.0,115.204,M,-2.200,M,0.0,0000*4C
$GNGGA,082320.00,3640.4148459,N,11711.1121297,E,1,35,1.0,115.209,M,-2.200,M,0.0,0000*4B
$GNGGA,082321.00,3640.4148550,N,11711.1121261,E,1,35,1.0,115.217,M,-2.200,M,0.0,0000*44
$GNGGA,082322.00,3640.4148608,N,11711.1121264,E,1,35,1.0,115.224,M,-2.200,M,0.0,0000*4C
$GNGGA,082323.00,3640.4232153,N,11711.1112386,E,1,36,1.0,111.533,M,-2.200,M,0.0,0000*41
$GNGGA,082324.00,3640.4231892,N,11711.1112463,E,1,36,1.0,111.557,M,-2.200,M,0.0,0000*4F
$GNGGA,082325.00,3640.4232849,N,11711.1112323,E,1,35,1.0,111.425,M,-2.200,M,0.0,0000*4F
$GNGGA,082326.00,3640.4233647,N,11711.1112184,E,1,35,1.0,111.323,M,-2.200,M,0.0,0000*43
$GNGGA,082327.00,3640.4232685,N,11711.1112475,E,1,35,1.0,111.469,M,-2.200,M,0.0,0000*4F
$GNGGA,082328.00,3640.4233049,N,11711.1112409,E,1,35,1.0,111.434,M,-2.200,M,0.0,0000*44
$GNGGA,082329.00,3640.4232946,N,11711.1112440,E,1,35,1.0,111.448,M,-2.200,M,0.0,0000*44
$GNGGA,082330.00,3640.4232897,N,11711.1112419,E,1,35,1.0,111.466,M,-2.200,M,0.0,0000*41
$GNGGA,082331.00,3640.4232893,N,11711.1112435,E,1,35,1.0,111.460,M,-2.200,M,0.0,0000*4C
$GNGGA,082332.00,3640.4232906,N,11711.1112429,E,1,35,1.0,111.464,M,-2.200,M,0.0,0000*4B
$GNGGA,082333.00,3640.4232929,N,11711.1112441,E,1,35,1.0,111.458,M,-2.200,M,0.0,0000*46
$GNGGA,082334.00,3640.4232906,N,11711.1112449,E,1,35,1.0,111.456,M,-2.200,M,0.0,0000*4A
$GNGGA,082335.00,3640.4232883,N,11711.1112458,E,1,35,1.0,111.461,M,-2.200,M,0.0,0000*43
$GNGGA,082336.00,3640.4232856,N,11711.1112454,E,1,37,1.0,111.466,M,-2.200,M,0.0,0000*41
$GNGGA,082337.00,3640.4232833,N,11711.1112469,E,1,37,1.0,111.471,M,-2.200,M,0.0,0000*4B
$GNGGA,082338.00,3640.4232811,N,11711.1112525,E,1,39,1.0,111.469,M,-2.200,M,0.0,0000*4A
$GNGGA,082339.00,3640.4232729,N,11711.1112571,E,1,39,1.0,111.476,M,-2.200,M,0.0,0000*40
$GNGGA,082340.00,3640.4232687,N,11711.1112683,E,1,39,1.0,111.476,M,-2.200,M,0.0,0000*45
$GNGGA,082341.00,3640.4232629,N,11711.1112750,E,1,39,1.0,111.479,M,-2.200,M,0.0,0000*40
$GNGGA,082342.00,3640.4232565,N,11711.1112813,E,1,41,1.0,111.485,M,-2.200,M,0.0,0000*4C
$GNGGA,082343.00,3640.4232553,N,11711.1112882,E,1,41,1.0,111.477,M,-2.200,M,0.0,0000*4D
$GNGGA,082344.00,3640.4232496,N,11711.1112953,E,1,41,1.0,111.480,M,-2.200,M,0.0,0000*47
$GNGGA,082345.00,3640.4232418,N,11711.1113044,E,1,41,1.0,111.489,M,-2.200,M,0.0,0000*47
$GNGGA,082346.00,3640.4232395,N,11711.1113097,E,1,41,1.0,111.484,M,-2.200,M,0.0,0000*45
$GNGGA,082347.00,3640.4232338,N,11711.1113162,E,1,41,1.0,111.487,M,-2.200,M,0.0,0000*4B
$GNGGA,082348.00,3640.4232319,N,11711.1113220,E,1,41,1.0,111.481,M,-2.200,M,0.0,0000*44
$GNGGA,082349.00,3640.4232257,N,11711.1113358,E,1,41,1.0,111.486,M,-2.200,M,0.0,0000*47
$GNGGA,082350.00,3640.4232255,N,11711.1113463,E,1,41,1.0,111.487,M,-2.200,M,0.0,0000*43
$GNGGA,082351.00,3640.4232223,N,11711.1113563,E,1,41,1.0,111.484,M,-2.200,M,0.0,0000*41
$GNGGA,082352.00,3640.4232159,N,11711.1113706,E,1,41,1.0,111.489,M,-2.200,M,0.0,0000*40
$GNGGA,082353.00,3640.4232137,N,11711.1113813,E,1,41,1.0,111.486,M,-2.200,M,0.0,0000*4D
$GNGGA,082354.00,3640.4232102,N,11711.1113929,E,1,40,1.0,111.485,M,-2.200,M,0.0,0000*46
$GNGGA,082355.00,3640.4232022,N,11711.1114029,E,1,40,1.0,111.491,M,-2.200,M,0.0,0000*4F
$GNGGA,082356.00,3640.4232005,N,11711.1114173,E,1,40,1.0,111.488,M,-2.200,M,0.0,0000*4F
$GNGGA,082357.00,3640.4231949,N,11711.1114248,E,1,40,1.0,111.487,M,-2.200,M,0.0,0000*48
$GNGGA,082358.00,3640.4231924,N,11711.1114352,E,1,39,1.0,111.484,M,-2.200,M,0.0,0000*4B
$GNGGA,082359.00,3640.4231877,N,11711.1114441,E,1,39,1.0,111.485,M,-2.200,M,0.0,0000*49
$GNGGA,082400.00,3640.4231831,N,11711.1114523,E,1,39,1.0,111.484,M,-2.200,M,0.0,0000*44
$GNGGA,082401.00,3640.4231839,N,11711.1114568,E,1,40,1.0,111.483,M,-2.200,M,0.0,0000*4B
$GNGGA,082402.00,3640.4231743,N,11711.1114670,E,1,40,1.0,111.489,M,-2.200,M,0.0,0000*4A
$GNGGA,082403.00,3640.4231733,N,11711.1114748,E,1,41,1.0,111.477,M,-2.200,M,0.0,0000*46
$GNGGA,082404.00,3640.4231690,N,11711.1114772,E,1,41,1.0,111.480,M,-2.200,M,0.0,0000*48
$GNGGA,082405.00,3640.4231681,N,11711.1114883,E,1,41,1.0,111.473,M,-2.200,M,0.0,0000*44
$GNGGA,082406.00,3640.4231648,N,11711.1114968,E,1,41,1.0,111.466,M,-2.200,M,0.0,0000*42
$GNGGA,082407.00,3640.4231609,N,11711.1115070,E,1,41,1.0,111.465,M,-2.200,M,0.0,0000*44
$GNGGA,082408.00,3640.4231620,N,11711.1115118,E,1,41,1.0,111.462,M,-2.200,M,0.0,0000*48
$GNGGA,082409.00,3640.4231567,N,11711.1115231,E,1,43,1.0,111.454,M,-2.200,M,0.0,0000*46
$GNGGA,082410.00,3640.4231573,N,11711.1115311,E,1,43,1.0,111.443,M,-2.200,M,0.0,0000*4E
$GNGGA,082411.00,3640.4231496,N,11711.1115406,E,1,43,1.0,111.451,M,-2.200,M,0.0,0000*47
$GNGGA,082412.00,3640.4231485,N,11711.1115519,E,1,43,1.0,111.443,M,-2.200,M,0.0,0000*4A
$GNGGA,082413.00,3640.4231420,N,11711.1115616,E,1,43,1.0,111.451,M,-2.200,M,0.0,0000*4B
$GNGGA,082414.00,3640.4231375,N,11711.1115704,E,1,43,1.0,111.448,M,-2.200,M,0.0,0000*41
$GNGGA,082415.00,3640.4196116,N,11711.1139252,E,1,44,1.0,105.516,M,-2.200,M,0.0,0000*49
$GNGGA,082416.00,3640.4195503,N,11711.1136874,E,1,43,1.0,105.034,M,-2.200,M,0.0,0000*4A
$GNGGA,082417.00,3640.4196358,N,11711.1136273,E,1,43,1.0,104.908,M,-2.200,M,0.0,0000*4A
$GNGGA,082418.00,3640.4197300,N,11711.1135770,E,1,43,1.0,104.818,M,-2.200,M,0.0,0000*4C
$GNGGA,082419.00,3640.4195965,N,11711.1136303,E,1,43,1.0,105.008,M,-2.200,M,0.0,0000*4D
$GNGGA,082420.00,3640.4196416,N,11711.1136106,E,1,43,1.0,104.979,M,-2.200,M,0.0,0000*44
$GNGGA,082421.00,3640.4196349,N,11711.1136113,E,1,43,1.0,104.988,M,-2.200,M,0.0,0000*42
$GNGGA,082422.00,3640.4196366,N,11711.1136105,E,1,43,1.0,104.994,M,-2.200,M,0.0,0000*46
$GNGGA,082423.00,3640.4196369,N,11711.1136124,E,1,43,1.0,105.001,M,-2.200,M,0.0,0000*4F
$GNGGA,082424.00,3640.4196367,N,11711.1136124,E,1,43,1.0,105.005,M,-2.200,M,0.0,0000*42
$GNGGA,082425.00,3640.4196350,N,11711.1136132,E,1,44,1.0,105.017,M,-2.200,M,0.0,0000*44
$GNGGA,082426.00,3640.4196302,N,11711.1136169,E,1,44,1.0,105.042,M,-2.200,M,0.0,0000*4E
$GNGGA,082427.00,3640.4196306,N,11711.1136168,E,1,44,1.0,105.051,M,-2.200,M,0.0,0000*48
$GNGGA,082428.00,3640.4208213,N,11711.1145006,E,1,45,1.0,108.639,M,-2.200,M,0.0,0000*4F
$GNGGA,082429.00,3640.4207385,N,11711.1143471,E,1,44,1.0,106.809,M,-2.200,M,0.0,0000*4F
$GNGGA,082430.00,3640.4208751,N,11711.1142590,E,1,44,1.0,106.346,M,-2.200,M,0.0,0000*4A
$GNGGA,082431.00,3640.4210719,N,11711.1143142,E,1,44,1.0,105.981,M,-2.200,M,0.0,0000*46
$GNGGA,082432.00,3640.4211465,N,11711.1142639,E,1,44,1.0,105.881,M,-2.200,M,0.0,0000*47
$GNGGA,082433.00,3640.4212252,N,11711.1142496,E,1,44,1.0,105.814,M,-2.200,M,0.0,0000*4C
$GNGGA,082434.00,3640.4212250,N,11711.1142512,E,1,44,1.0,105.825,M,-2.200,M,0.0,0000*46
$GNGGA,082435.00,3640.4212430,N,11711.1142485,E,1,44,1.0,105.823,M,-2.200,M,0.0,0000*4E
$GNGGA,082436.00,3640.4212499,N,11711.1142453,E,1,44,1.0,105.828,M,-2.200,M,0.0,0000*4E
$GNGGA,082437.00,3640.4212563,N,11711.1142426,E,1,44,1.0,105.825,M,-2.200,M,0.0,0000*44
$GNGGA,082438.00,3640.4212622,N,11711.1142402,E,1,44,1.0,105.829,M,-2.200,M,0.0,0000*47
$GNGGA,082439.00,3640.4212659,N,11711.1142354,E,1,44,1.0,105.831,M,-2.200,M,0.0,0000*47
$GNGGA,082440.00,3640.4212655,N,11711.1142357,E,1,44,1.0,105.832,M,-2.200,M,0.0,0000*45
$GNGGA,082441.00,3640.4212700,N,11711.1142323,E,1,44,1.0,105.832,M,-2.200,M,0.0,0000*46
$GNGGA,082442.00,3640.4212741,N,11711.1142279,E,1,44,1.0,105.835,M,-2.200,M,0.0,0000*49
$GNGGA,082443.00,3640.4212808,N,11711.1142211,E,1,44,1.0,105.837,M,-2.200,M,0.0,0000*46
$GNGGA,082444.00,3640.4212829,N,11711.1142146,E,1,44,1.0,105.842,M,-2.200,M,0.0,0000*41
$GNGGA,082445.00,3640.4212864,N,11711.1142115,E,1,44,1.0,105.844,M,-2.200,M,0.0,0000*49
$GNGGA,082446.00,3640.4212884,N,11711.1142054,E,1,44,1.0,105.850,M,-2.200,M,0.0,0000*45
$GNGGA,082447.00,3640.4212906,N,11711.1141999,E,1,44,1.0,105.857,M,-2.200,M,0.0,0000*43
$GNGGA,082448.00,3640.4212998,N,11711.1141928,E,1,44,1.0,105.854,M,-2.200,M,0.0,0000*42
$GNGGA,082449.00,3640.4213042,N,11711.1141863,E,1,44,1.0,105.854,M,-2.200,M,0.0,0000*42
$GNGGA,082450.00,3640.4213143,N,11711.1141771,E,1,44,1.0,105.850,M,-2.200,M,0.0,0000*42
$GNGGA,082451.00,3640.4213180,N,11711.1141732,E,1,44,1.0,105.845,M,-2.200,M,0.0,0000*4F
$GNGGA,082452.00,3640.4213223,N,11711.1141668,E,1,44,1.0,105.845,M,-2.200,M,0.0,0000*48
$GNGGA,082453.00,3640.4213286,N,11711.1141620,E,1,44,1.0,105.846,M,-2.200,M,0.0,0000*49
$GNGGA,082454.00,3640.4213329,N,11711.1141560,E,1,44,1.0,105.847,M,-2.200,M,0.0,0000*4C
$GNGGA,082455.00,3640.4213345,N,11711.1141511,E,1,44,1.0,105.848,M,-2.200,M,0.0,0000*4E
$GNGGA,082456.00,3640.4213402,N,11711.1141465,E,1,44,1.0,105.850,M,-2.200,M,0.0,0000*42
$GNGGA,082457.00,3640.4213450,N,11711.1141408,E,1,44,1.0,105.849,M,-2.200,M,0.0,0000*47
$GNGGA,082458.00,3640.4213470,N,11711.1141399,E,1,44,1.0,105.855,M,-2.200,M,0.0,0000*48
$GNGGA,082459.00,3640.4213523,N,11711.1141351,E,1,44,1.0,105.854,M,-2.200,M,0.0,0000*4B
$GNGGA,082500.00,3640.4213549,N,11711.1141297,E,1,44,1.0,105.860,M,-2.200,M,0.0,0000*46
$GNGGA,082501.00,3640.4213567,N,11711.1141246,E,1,44,1.0,105.867,M,-2.200,M,0.0,0000*40
$GNGGA,082502.00,3640.4213618,N,11711.1141216,E,1,44,1.0,105.871,M,-2.200,M,0.0,0000*4A
$GNGGA,082503.00,3640.4213711,N,11711.1141159,E,1,44,1.0,105.870,M,-2.200,M,0.0,0000*4A
$GNGGA,082504.00,3640.4213769,N,11711.1141148,E,1,44,1.0,105.877,M,-2.200,M,0.0,0000*45
$GNGGA,082505.00,3640.4213846,N,11711.1141118,E,1,44,1.0,105.868,M,-2.200,M,0.0,0000*4D
$GNGGA,082506.00,3640.4213915,N,11711.1141084,E,1,43,1.0,105.873,M,-2.200,M,0.0,0000*40
$GNGGA,082507.00,3640.4213970,N,11711.1141026,E,1,44,1.0,105.884,M,-2.200,M,0.0,0000*45
$GNGGA,082508.00,3640.4214014,N,11711.1141012,E,1,44,1.0,105.891,M,-2.200,M,0.0,0000*45
$GNGGA,082509.00,3640.4214094,N,11711.1140950,E,1,44,1.0,105.893,M,-2.200,M,0.0,0000*40
$GNGGA,082510.00,3640.4214129,N,11711.1140946,E,1,44,1.0,105.898,M,-2.200,M,0.0,0000*43
$GNGGA,082511.00,3640.4214191,N,11711.1140910,E,1,44,1.0,105.904,M,-2.200,M,0.0,0000*46
$GNGGA,082512.00,3640.4214247,N,11711.1140869,E,1,43,1.0,105.908,M,-2.200,M,0.0,0000*49
$GNGGA,082513.00,3640.4214308,N,11711.1140826,E,1,43,1.0,105.915,M,-2.200,M,0.0,0000*45
$GNGGA,082514.00,3640.4214350,N,11711.1140758,E,1,42,1.0,105.928,M,-2.200,M,0.0,0000*46
$GNGGA,082515.00,3640.4214401,N,11711.1140699,E,1,43,1.0,105.934,M,-2.200,M,0.0,0000*44
$GNGGA,082516.00,3640.4214451,N,11711.1140639,E,1,43,1.0,105.943,M,-2.200,M,0.0,0000*48
$GNGGA,082517.00,3640.4214487,N,11711.1140566,E,1,44,1.0,105.947,M,-2.200,M,0.0,0000*48
$GNGGA,082518.00,3640.4214547,N,11711.1140480,E,1,43,1.0,105.951,M,-2.200,M,0.0,0000*43
$GNGGA,082519.00,3640.4214581,N,11711.1140427,E,1,43,1.0,105.956,M,-2.200,M,0.0,0000*42
$GNGGA,082520.00,3640.4214643,N,11711.1140348,E,1,43,1.0,105.960,M,-2.200,M,0.0,0000*4E
$GNGGA,082521.00,3640.4214667,N,11711.1140296,E,1,44,1.0,105.964,M,-2.200,M,0.0,0000*48
$GNGGA,082522.00,3640.4214715,N,11711.1140221,E,1,43,1.0,105.963,M,-2.200,M,0.0,0000*43
$GNGGA,082523.00,3640.4214807,N,11711.1140156,E,1,43,1.0,105.964,M,-2.200,M,0.0,0000*4A
$GNGGA,082524.00,3640.4214837,N,11711.1140079,E,1,44,1.0,105.976,M,-2.200,M,0.0,0000*46
$GNGGA,082525.00,3640.4214825,N,11711.1140025,E,1,43,1.0,105.989,M,-2.200,M,0.0,0000*4A
$GNGGA,082526.00,3640.4214913,N,11711.1139983,E,1,43,1.0,105.989,M,-2.200,M,0.0,0000*46
$GNGGA,082527.00,3640.4214999,N,11711.1139871,E,1,43,1.0,105.989,M,-2.200,M,0.0,0000*49
$GNGGA,082528.00,3640.4215100,N,11711.1139726,E,1,43,1.0,105.996,M,-2.200,M,0.0,0000*4C
$GNGGA,082529.00,3640.4215197,N,11711.1139588,E,1,43,1.0,105.996,M,-2.200,M,0.0,0000*45
$GNGGA,082530.00,3640.4215307,N,11711.1139454,E,1,43,1.0,106.001,M,-2.200,M,0.0,0000*42
$GNGGA,082531.00,3640.4215507,N,11711.1139278,E,1,43,1.0,105.991,M,-2.200,M,0.0,0000*4E
$GNGGA,082532.00,3640.4215664,N,11711.1139115,E,1,46,1.0,105.999,M,-2.200,M,0.0,0000*4E
$GNGGA,082533.00,3640.4215833,N,11711.1138981,E,1,44,1.0,105.999,M,-2.200,M,0.0,0000*45
$GNGGA,082534.00,3640.4250786,N,11711.1123548,E,1,44,1.0,102.255,M,-2.200,M,0.0,0000*4D
$GNGGA,082535.00,3640.4255796,N,11711.1121177,E,1,43,1.0,101.859,M,-2.200,M,0.0,0000*40
$GNGGA,082536.00,3640.4249140,N,11711.1120936,E,1,44,1.0,101.294,M,-2.200,M,0.0,0000*43
$GNGGA,082537.00,3640.4249484,N,11711.1120907,E,1,45,1.0,101.284,M,-2.200,M,0.0,0000*4D
$GNGGA,082538.00,3640.4249685,N,11711.1120906,E,1,43,1.0,101.289,M,-2.200,M,0.0,0000*4B
$GNGGA,082539.00,3640.4250190,N,11711.1120400,E,1,44,1.0,101.279,M,-2.200,M,0.0,0000*42
$GNGGA,082540.00,3640.4250258,N,11711.1120250,E,1,43,1.0,101.314,M,-2.200,M,0.0,0000*45
$GNGGA,082541.00,3640.4250533,N,11711.1120143,E,1,45,1.0,101.321,M,-2.200,M,0.0,0000*4F
$GNGGA,082542.00,3640.4236982,N,11711.1119967,E,1,44,1.0,106.767,M,-2.200,M,0.0,0000*4E
$GNGGA,082543.00,3640.4232520,N,11711.1119039,E,1,43,1.0,105.623,M,-2.200,M,0.0,0000*48
$GNGGA,082544.00,3640.4233307,N,11711.1118432,E,1,43,1.0,105.593,M,-2.200,M,0.0,0000*4B
$GNGGA,082545.00,3640.4233586,N,11711.1118420,E,1,44,1.0,105.576,M,-2.200,M,0.0,0000*4A
$GNGGA,082546.00,3640.4234346,N,11711.1117895,E,1,43,1.0,105.577,M,-2.200,M,0.0,0000*4F
$GNGGA,082547.00,3640.4234474,N,11711.1117934,E,1,44,1.0,105.581,M,-2.200,M,0.0,0000*4C
$GNGGA,082548.00,3640.4234552,N,11711.1117937,E,1,45,1.0,105.612,M,-2.200,M,0.0,0000*4D
$GNGGA,082549.00,3640.4234742,N,11711.1117921,E,1,44,1.0,105.607,M,-2.200,M,0.0,0000*4D
$GNGGA,082550.00,3640.4234951,N,11711.1118095,E,1,45,1.0,105.592,M,-2.200,M,0.0,0000*4E
$GNGGA,082551.00,3640.4215452,N,11711.1120167,E,1,44,1.0,109.049,M,-2.200,M,0.0,0000*4B
$GNGGA,082552.00,3640.4217795,N,11711.1122020,E,1,43,1.0,108.616,M,-2.200,M,0.0,0000*48
$GNGGA,082553.00,3640.4210504,N,11711.1119208,E,1,44,1.0,109.570,M,-2.200,M,0.0,0000*41
$GNGGA,082554.00,3640.4216083,N,11711.1121047,E,1,45,1.0,109.453,M,-2.200,M,0.0,0000*49
$GNGGA,082555.00,3640.4215801,N,11711.1121114,E,1,44,1.0,109.530,M,-2.200,M,0.0,0000*4B
$GNGGA,082556.00,3640.4215620,N,11711.1121110,E,1,45,1.0,109.611,M,-2.200,M,0.0,0000*40
$GNGGA,082557.00,3640.4215653,N,11711.1121066,E,1,46,1.0,109.684,M,-2.200,M,0.0,0000*4A
$GNGGA,082558.00,3640.4217848,N,11711.1121006,E,1,46,1.0,109.272,M,-2.200,M,0.0,0000*48
$GNGGA,082559.00,3640.4186501,N,11711.1128786,E,1,45,1.0,112.461,M,-2.200,M,0.0,0000*49
$GNGGA,082600.00,3640.4191250,N,11711.1127276,E,1,45,1.0,113.068,M,-2.200,M,0.0,0000*4A
$GNGGA,082601.00,3640.4191575,N,11711.1126771,E,1,43,1.0,113.211,M,-2.200,M,0.0,0000*42
$GNGGA,082602.00,3640.4192058,N,11711.1126409,E,1,44,1.0,113.251,M,-2.200,M,0.0,0000*47
$GNGGA,082603.00,3640.4194034,N,11711.1126305,E,1,46,1.0,112.911,M,-2.200,M,0.0,0000*4D
$GNGGA,082604.00,3640.4194638,N,11711.1126028,E,1,45,1.0,112.889,M,-2.200,M,0.0,0000*4F
